[
  {
    "name": "Afrit Zuid",
    "street": "Kronenburgstraat",
    "nr": "30",
    "postal": "2000",
    "city": "Antwerpen",
    "type": "Vrij katholiek onderwijs",
    "fullAddress": "Kronenburgstraat 30, 2000 Antwerpen",
    "indicator": 11,
    "notIndicator": 20,
    "distancePercent": 50,
    "lat": 51.2121565,
    "lng": 4.3956495
  },
  {
    "name": "De Dames",
    "street": "Lange Nieuwstraat",
    "nr": "74",
    "postal": "2000",
    "city": "Antwerpen",
    "type": "Vrij katholiek onderwijs",
    "fullAddress": "Lange Nieuwstraat 74, 2000 Antwerpen",
    "indicator": 20,
    "notIndicator": 13,
    "distancePercent": 80,
    "lat": 51.2194605,
    "lng": 4.410908
  },
  {
    "name": "De Kleine Jacob",
    "street": "Frans Halsplein",
    "nr": "6",
    "postal": "2000",
    "city": "Antwerpen",
    "type": "Vrij katholiek onderwijs",
    "fullAddress": "Frans Halsplein 6, 2000 Antwerpen",
    "indicator": 12,
    "notIndicator": 7,
    "distancePercent": 60,
    "lat": 51.22075419999999,
    "lng": 4.4123472
  },
  {
    "name": "K'do",
    "street": "Schildersstraat",
    "nr": "41",
    "postal": "2000",
    "city": "Antwerpen",
    "type": "GO!",
    "fullAddress": "Schildersstraat 41, 2000 Antwerpen",
    "indicator": 10,
    "notIndicator": 9,
    "distancePercent": 50,
    "lat": 51.2084481,
    "lng": 4.396815399999999
  },
  {
    "name": "Musica Bervoetstraat",
    "street": "Bervoetstraat",
    "nr": "31",
    "postal": "2000",
    "city": "Antwerpen",
    "type": "Stedelijk onderwijs",
    "fullAddress": "Bervoetstraat 31, 2000 Antwerpen",
    "indicator": 4,
    "notIndicator": 12,
    "distancePercent": 50,
    "lat": 51.2121181,
    "lng": 4.4021644
  },
  {
    "name": "Musica Lange Ridderstraat",
    "street": "Lange Riddersstraat",
    "nr": "48",
    "postal": "2000",
    "city": "Antwerpen",
    "type": "Stedelijk onderwijs",
    "fullAddress": "Lange Riddersstraat 48, 2000 Antwerpen",
    "indicator": 5,
    "notIndicator": 4,
    "distancePercent": 50,
    "lat": 51.21597,
    "lng": 4.396406
  },
  {
    "name": "Onze-lieve-vrouwecollege KS",
    "street": "Frankrijklei",
    "nr": "79",
    "postal": "2000",
    "city": "Antwerpen",
    "type": "Vrij katholiek onderwijs",
    "fullAddress": "Frankrijklei 79, 2000 Antwerpen",
    "indicator": 9,
    "notIndicator": 10,
    "distancePercent": 50,
    "lat": 51.2152268,
    "lng": 4.4135519
  },
  {
    "name": "Prins Dries KS",
    "street": "Dries",
    "nr": "11",
    "postal": "2000",
    "city": "Antwerpen",
    "type": "Stedelijk onderwijs",
    "fullAddress": "Dries 11, 2000 Antwerpen",
    "indicator": 11,
    "notIndicator": 11,
    "distancePercent": 50,
    "lat": 51.2251448,
    "lng": 4.403527299999999
  },
  {
    "name": "Sint-Jan Berchmanscollege",
    "street": "Jodenstraat",
    "nr": "15",
    "postal": "2000",
    "city": "Antwerpen",
    "type": "Vrij katholiek onderwijs",
    "fullAddress": "Jodenstraat 15, 2000 Antwerpen",
    "indicator": 0,
    "notIndicator": 5,
    "distancePercent": 75,
    "lat": 51.2170334,
    "lng": 4.4075924
  },
  {
    "name": "Sint-Lievenscollege KS",
    "street": "Kapucinessenstraat",
    "nr": "28",
    "postal": "2000",
    "city": "Antwerpen",
    "type": "Vrij katholiek onderwijs",
    "fullAddress": "Kapucinessenstraat 28, 2000 Antwerpen",
    "indicator": 16,
    "notIndicator": 24,
    "distancePercent": 50,
    "lat": 51.21117,
    "lng": 4.4039025
  },
  {
    "name": "Sint-Ludgardis",
    "street": "Bervoetstraat",
    "nr": "25",
    "postal": "2000",
    "city": "Antwerpen",
    "type": "Vrij katholiek onderwijs",
    "fullAddress": "Bervoetstraat 25, 2000 Antwerpen",
    "indicator": 13,
    "notIndicator": 31,
    "distancePercent": 50,
    "lat": 51.2121499,
    "lng": 4.4017764
  },
  {
    "name": "Steinerschool Antwerpen Volkstraat",
    "street": "Scheldestraat",
    "nr": "62",
    "postal": "2000",
    "city": "Antwerpen",
    "type": "Vrij onderwijs",
    "fullAddress": "Scheldestraat 62, 2000 Antwerpen",
    "indicator": 1,
    "notIndicator": 8,
    "distancePercent": 50,
    "lat": 51.211368,
    "lng": 4.3951874
  },
  {
    "name": "Studio Dynamo",
    "street": "Verschansingstraat",
    "nr": "29",
    "postal": "2000",
    "city": "Antwerpen",
    "type": "Stedelijk onderwijs",
    "fullAddress": "Verschansingstraat 29, 2000 Antwerpen",
    "indicator": 22,
    "notIndicator": 20,
    "distancePercent": 50,
    "lat": 51.2083532,
    "lng": 4.3910243
  },
  {
    "name": "Via Louiza",
    "street": "Louizastraat",
    "nr": "17",
    "postal": "2000",
    "city": "Antwerpen",
    "type": "Stedelijk onderwijs",
    "fullAddress": "Louizastraat 17, 2000 Antwerpen",
    "indicator": 8,
    "notIndicator": 11,
    "distancePercent": 70,
    "lat": 51.2115973,
    "lng": 4.4050467
  },
  {
    "name": "Alberreke",
    "street": "Albertstraat",
    "nr": "32",
    "postal": "2018",
    "city": "Antwerpen",
    "type": "Stedelijk onderwijs",
    "fullAddress": "Albertstraat 32, 2018 Antwerpen",
    "indicator": 8,
    "notIndicator": 8,
    "distancePercent": 50,
    "lat": 51.2051036,
    "lng": 4.4148783
  },
  {
    "name": "Bais Chinuch",
    "street": "Lamorinièrestraat",
    "nr": "83",
    "postal": "2018",
    "city": "Antwerpen",
    "type": "Joods onderwijs",
    "fullAddress": "Lamorinièrestraat 83, 2018 Antwerpen",
    "indicator": 6,
    "notIndicator": 4,
    "distancePercent": 70,
    "lat": 51.2052858,
    "lng": 4.4221541
  },
  {
    "name": "Bais Rachel",
    "street": "Lamorinièrestraat",
    "nr": "26",
    "postal": "2018",
    "city": "Antwerpen",
    "type": "Joods onderwijs",
    "fullAddress": "Lamorinièrestraat 26, 2018 Antwerpen",
    "indicator": 10,
    "notIndicator": 8,
    "distancePercent": 50,
    "lat": 51.20725969999999,
    "lng": 4.4234446
  },
  {
    "name": "Benoth Jerusalem",
    "street": "Van Immerseelstraat",
    "nr": "29",
    "postal": "2018",
    "city": "Antwerpen",
    "type": "Joods onderwijs",
    "fullAddress": "Van Immerseelstraat 29, 2018 Antwerpen",
    "indicator": 5,
    "notIndicator": 18,
    "distancePercent": 80,
    "lat": 51.212187,
    "lng": 4.4233375
  },
  {
    "name": "Crea 16",
    "street": "Grotehondstraat",
    "nr": "50",
    "postal": "2018",
    "city": "Antwerpen",
    "type": "Stedelijk onderwijs",
    "fullAddress": "Grotehondstraat 50, 2018 Antwerpen",
    "indicator": 11,
    "notIndicator": 11,
    "distancePercent": 85,
    "lat": 51.2059333,
    "lng": 4.4295859
  },
  {
    "name": "De Brug",
    "street": "Grotebeerstraat",
    "nr": "31",
    "postal": "2018",
    "city": "Antwerpen",
    "type": "Vrij katholiek onderwijs",
    "fullAddress": "Grotebeerstraat 31, 2018 Antwerpen",
    "indicator": 4,
    "notIndicator": 8,
    "distancePercent": 50,
    "lat": 51.2071494,
    "lng": 4.4277727
  },
  {
    "name": "De Gele Ballon",
    "street": "Lamorinièrestraat",
    "nr": "93",
    "postal": "2018",
    "city": "Antwerpen",
    "type": "Stedelijk onderwijs",
    "fullAddress": "Lamorinièrestraat 93, 2018 Antwerpen",
    "indicator": 12,
    "notIndicator": 10,
    "distancePercent": 75,
    "lat": 51.2049189,
    "lng": 4.4218587
  },
  {
    "name": "De Hazelaar",
    "street": "Lange Lozanastraat",
    "nr": "117",
    "postal": "2018",
    "city": "Antwerpen",
    "type": "Vrij onderwijs",
    "fullAddress": "Lange Lozanastraat 117, 2018 Antwerpen",
    "indicator": 2,
    "notIndicator": 5,
    "distancePercent": 50,
    "lat": 51.2028186,
    "lng": 4.405484
  },
  {
    "name": "De Kleine Wereld Belegstraat",
    "street": "Belegstraat",
    "nr": "62",
    "postal": "2018",
    "city": "Antwerpen",
    "type": "Stedelijk onderwijs",
    "fullAddress": "Belegstraat 62, 2018 Antwerpen",
    "indicator": 4,
    "notIndicator": 19,
    "distancePercent": 65,
    "lat": 51.2045094,
    "lng": 4.3962939
  },
  {
    "name": "De Krokodil",
    "street": "Grétrystraat",
    "nr": "46",
    "postal": "2018",
    "city": "Antwerpen",
    "type": "Stedelijk onderwijs",
    "fullAddress": "Grétrystraat 46, 2018 Antwerpen",
    "indicator": 14,
    "notIndicator": 19,
    "distancePercent": 50,
    "lat": 51.2023125,
    "lng": 4.4170751
  },
  {
    "name": "De Sterrenkijker - Durletstraat",
    "street": "Durletstraat",
    "nr": "8",
    "postal": "2018",
    "city": "Antwerpen",
    "type": "Stedelijk onderwijs",
    "fullAddress": "Durletstraat 8, 2018 Antwerpen",
    "indicator": 13,
    "notIndicator": 22,
    "distancePercent": 70,
    "lat": 51.2026021,
    "lng": 4.4042018
  },
  {
    "name": "De Sterrenkijker - Molenstraat",
    "street": "Molenstraat",
    "nr": "24",
    "postal": "2018",
    "city": "Antwerpen",
    "type": "Stedelijk onderwijs",
    "fullAddress": "Molenstraat 24, 2018 Antwerpen",
    "indicator": 5,
    "notIndicator": 13,
    "distancePercent": 70,
    "lat": 51.20720439999999,
    "lng": 4.40611
  },
  {
    "name": "De Wereldreiziger Provinciestraat",
    "street": "Provinciestraat",
    "nr": "110",
    "postal": "2018",
    "city": "Antwerpen",
    "type": "Stedelijk onderwijs",
    "fullAddress": "Provinciestraat 110, 2018 Antwerpen",
    "indicator": 16,
    "notIndicator": 7,
    "distancePercent": 50,
    "lat": 51.2143796,
    "lng": 4.4257279
  },
  {
    "name": "De Wereldreiziger Quellinstraat",
    "street": "Quellinstraat",
    "nr": "31",
    "postal": "2018",
    "city": "Antwerpen",
    "type": "Stedelijk onderwijs",
    "fullAddress": "Quellinstraat 31, 2018 Antwerpen",
    "indicator": 0,
    "notIndicator": 1,
    "distancePercent": 50,
    "lat": 51.216124,
    "lng": 4.4162371
  },
  {
    "name": "De Zonnebloem (2018)",
    "street": "Van Trierstraat",
    "nr": "28",
    "postal": "2018",
    "city": "Antwerpen",
    "type": "Vrij katholiek onderwijs",
    "fullAddress": "Van Trierstraat 28, 2018 Antwerpen",
    "indicator": 6,
    "notIndicator": 10,
    "distancePercent": 50,
    "lat": 51.2006862,
    "lng": 4.4013617
  },
  {
    "name": "Heilig Hart",
    "street": "Isabellalei",
    "nr": "107",
    "postal": "2018",
    "city": "Antwerpen",
    "type": "Vrij katholiek onderwijs",
    "fullAddress": "Isabellalei 107, 2018 Antwerpen",
    "indicator": 20,
    "notIndicator": 17,
    "distancePercent": 50,
    "lat": 51.2032939,
    "lng": 4.418430799999999
  },
  {
    "name": "Internationale Evangelische School (De Zonnebloem)",
    "street": "Korte Altaarstraat",
    "nr": "19",
    "postal": "2018",
    "city": "Antwerpen",
    "type": "Vrij Pr.- Evangelisch",
    "fullAddress": "Korte Altaarstraat 19, 2018 Antwerpen",
    "indicator": 9,
    "notIndicator": 5,
    "distancePercent": 50,
    "lat": 51.2068963,
    "lng": 4.4318064
  },
  {
    "name": "Jesode Hatora-Beth Jacob",
    "street": "Steenbokstraat",
    "nr": "16",
    "postal": "2018",
    "city": "Antwerpen",
    "type": "Joods onderwijs",
    "fullAddress": "Steenbokstraat 16, 2018 Antwerpen",
    "indicator": 5,
    "notIndicator": 7,
    "distancePercent": 50,
    "lat": 51.2074688,
    "lng": 4.426898
  },
  {
    "name": "Leefschool De Dageraad",
    "street": "Lange Altaarstraat",
    "nr": "4",
    "postal": "2018",
    "city": "Antwerpen",
    "type": "Vrij katholiek onderwijs",
    "fullAddress": "Lange Altaarstraat 4, 2018 Antwerpen",
    "indicator": 2,
    "notIndicator": 3,
    "distancePercent": 50,
    "lat": 51.2074095,
    "lng": 4.4327401
  },
  {
    "name": "Sint-Jozefinstituut",
    "street": "Jacob Jordaensstraat",
    "nr": "75",
    "postal": "2018",
    "city": "Antwerpen",
    "type": "Vrij katholiek onderwijs",
    "fullAddress": "Jacob Jordaensstraat 75, 2018 Antwerpen",
    "indicator": 22,
    "notIndicator": 18,
    "distancePercent": 60,
    "lat": 51.2084351,
    "lng": 4.4140548
  },
  {
    "name": "Sint-Ludgardis Belpaire",
    "street": "Haantjeslei",
    "nr": "50",
    "postal": "2018",
    "city": "Antwerpen",
    "type": "Vrij katholiek onderwijs",
    "fullAddress": "Haantjeslei 50, 2018 Antwerpen",
    "indicator": 5,
    "notIndicator": 5,
    "distancePercent": 50,
    "lat": 51.20298,
    "lng": 4.399009
  },
  {
    "name": "Sint-Norbertusinstituut KS",
    "street": "Hertsdeinstraat",
    "nr": "25",
    "postal": "2018",
    "city": "Antwerpen",
    "type": "Vrij katholiek onderwijs",
    "fullAddress": "Hertsdeinstraat 25, 2018 Antwerpen",
    "indicator": 6,
    "notIndicator": 15,
    "distancePercent": 80,
    "lat": 51.2036564,
    "lng": 4.398737
  },
  {
    "name": "Steinerschool Antwerpen Lamorinièrestraat",
    "street": "Lamorinièrestraat",
    "nr": "229",
    "postal": "2018",
    "city": "Antwerpen",
    "type": "Vrij onderwijs",
    "fullAddress": "Lamorinièrestraat 229, 2018 Antwerpen",
    "indicator": 2,
    "notIndicator": 2,
    "distancePercent": 50,
    "lat": 51.20136129999999,
    "lng": 4.4174958
  },
  {
    "name": "Tachkemoni",
    "street": "Lange Leemstraat",
    "nr": "313",
    "postal": "2018",
    "city": "Antwerpen",
    "type": "Joods onderwijs",
    "fullAddress": "Lange Leemstraat 313, 2018 Antwerpen",
    "indicator": 2,
    "notIndicator": 7,
    "distancePercent": 50,
    "lat": 51.2042679,
    "lng": 4.4221547
  },
  {
    "name": "VIB Jesode-Hatora",
    "street": "Lange Van Ruusbroecstraat",
    "nr": "12",
    "postal": "2018",
    "city": "Antwerpen",
    "type": "Joods onderwijs",
    "fullAddress": "Lange Van Ruusbroecstraat 12, 2018 Antwerpen",
    "indicator": 4,
    "notIndicator": 5,
    "distancePercent": 50,
    "lat": 51.2076582,
    "lng": 4.4258565
  },
  {
    "name": "Vita et Pax (Montessori-methode)",
    "street": "Breughelstraat",
    "nr": "19",
    "postal": "2018",
    "city": "Antwerpen",
    "type": "Vrij katholiek onderwijs",
    "fullAddress": "Breughelstraat 19, 2018 Antwerpen",
    "indicator": 0,
    "notIndicator": 0,
    "distancePercent": 50,
    "lat": 51.2082436,
    "lng": 4.4150718
  },
  {
    "name": "Wiznitz",
    "street": "Belgiëlei",
    "nr": "32",
    "postal": "2018",
    "city": "Antwerpen",
    "type": "Joods onderwijs",
    "fullAddress": "Belgiëlei 32, 2018 Antwerpen",
    "indicator": 2,
    "notIndicator": 8,
    "distancePercent": 50,
    "lat": 51.2085059,
    "lng": 4.4213948
  },
  {
    "name": "Yavne",
    "street": "Lamorinièrestraat",
    "nr": "150",
    "postal": "2018",
    "city": "Antwerpen",
    "type": "Joods onderwijs",
    "fullAddress": "Lamorinièrestraat 150, 2018 Antwerpen",
    "indicator": 10,
    "notIndicator": 10,
    "distancePercent": 54,
    "lat": 51.2037126,
    "lng": 4.4206303
  },
  {
    "name": "Creatopia",
    "street": "Valerius de Saedeleerstraat",
    "nr": "2",
    "postal": "2020",
    "city": "Antwerpen",
    "type": "Stedelijk onderwijs",
    "fullAddress": "Valerius de Saedeleerstraat 2, 2020 Antwerpen",
    "indicator": 21,
    "notIndicator": 5,
    "distancePercent": 50,
    "lat": 51.191588,
    "lng": 4.376127299999999
  },
  {
    "name": "De Kameleon",
    "street": "Constant Permekestraat",
    "nr": "2",
    "postal": "2020",
    "city": "Antwerpen",
    "type": "Stedelijk onderwijs",
    "fullAddress": "Constant Permekestraat 2, 2020 Antwerpen",
    "indicator": 35,
    "notIndicator": 9,
    "distancePercent": 50,
    "lat": 51.1901185,
    "lng": 4.3822869
  },
  {
    "name": "De Piramide",
    "street": "Pierenbergstraat",
    "nr": "33",
    "postal": "2020",
    "city": "Antwerpen",
    "type": "Stedelijk onderwijs",
    "fullAddress": "Pierenbergstraat 33, 2020 Antwerpen",
    "indicator": 22,
    "notIndicator": 12,
    "distancePercent": 75,
    "lat": 51.1883624,
    "lng": 4.380819
  },
  {
    "name": "De Tandem (Het Vosje)",
    "street": "Jan De Voslei",
    "nr": "10",
    "postal": "2020",
    "city": "Antwerpen",
    "type": "Stedelijk onderwijs",
    "fullAddress": "Jan De Voslei 10, 2020 Antwerpen",
    "indicator": 29,
    "notIndicator": 17,
    "distancePercent": 50,
    "lat": 51.1874343,
    "lng": 4.390242199999999
  },
  {
    "name": "Domino",
    "street": "Jan De Voslei",
    "nr": "23A",
    "postal": "2020",
    "city": "Antwerpen",
    "type": "Vrij katholiek onderwijs",
    "fullAddress": "Jan De Voslei 23A, 2020 Antwerpen",
    "indicator": 28,
    "notIndicator": 7,
    "distancePercent": 70,
    "lat": 51.1885364,
    "lng": 4.3890534
  },
  {
    "name": "Kosmos",
    "street": "Gerard le Grellelaan",
    "nr": "5",
    "postal": "2020",
    "city": "Antwerpen",
    "type": "Stedelijk onderwijs",
    "fullAddress": "Gerard le Grellelaan 5, 2020 Antwerpen",
    "indicator": 6,
    "notIndicator": 8,
    "distancePercent": 50,
    "lat": 51.1877217,
    "lng": 4.4050617
  },
  {
    "name": "Leefschool Toverbol",
    "street": "Wittestraat",
    "nr": "116",
    "postal": "2020",
    "city": "Antwerpen",
    "type": "Vrij katholiek onderwijs",
    "fullAddress": "Wittestraat 116, 2020 Antwerpen",
    "indicator": 9,
    "notIndicator": 2,
    "distancePercent": 50,
    "lat": 51.1874129,
    "lng": 4.3838589
  },
  {
    "name": "Pius X",
    "street": "VIIde-Olympiadelaan",
    "nr": "25",
    "postal": "2020",
    "city": "Antwerpen",
    "type": "Vrij katholiek onderwijs",
    "fullAddress": "VIIde-Olympiadelaan 25, 2020 Antwerpen",
    "indicator": 0,
    "notIndicator": 2,
    "distancePercent": 50,
    "lat": 51.18270709999999,
    "lng": 4.3877676
  },
  {
    "name": "Vlinderwijs",
    "street": "Eric Sasselaan",
    "nr": "2",
    "postal": "2020",
    "city": "Antwerpen",
    "type": "GO!",
    "fullAddress": "Eric Sasselaan 2, 2020 Antwerpen",
    "indicator": 10,
    "notIndicator": 8,
    "distancePercent": 50,
    "lat": 51.1921905,
    "lng": 4.3936057
  },
  {
    "name": "De Schroef",
    "street": "Elzasweg",
    "nr": "14",
    "postal": "2030",
    "city": "Antwerpen",
    "type": "Stedelijk onderwijs",
    "fullAddress": "Elzasweg 14, 2030 Antwerpen",
    "indicator": 1,
    "notIndicator": 10,
    "distancePercent": 50,
    "lat": 51.2431069,
    "lng": 4.4092741
  },
  {
    "name": "Maria Boodschap",
    "street": "Perustraat",
    "nr": "4",
    "postal": "2030",
    "city": "Antwerpen",
    "type": "Vrij katholiek onderwijs",
    "fullAddress": "Perustraat 4, 2030 Antwerpen",
    "indicator": 6,
    "notIndicator": 6,
    "distancePercent": 80,
    "lat": 51.2527582,
    "lng": 4.4242751
  },
  {
    "name": "Optimist",
    "street": "Quebecstraat",
    "nr": "3",
    "postal": "2030",
    "city": "Antwerpen",
    "type": "Stedelijk onderwijs",
    "fullAddress": "Quebecstraat 3, 2030 Antwerpen",
    "indicator": 24,
    "notIndicator": 6,
    "distancePercent": 90,
    "lat": 51.2582287,
    "lng": 4.4233606
  },
  {
    "name": "Sportomundo",
    "street": "Columbiastraat",
    "nr": "6",
    "postal": "2030",
    "city": "Antwerpen",
    "type": "Stedelijk onderwijs",
    "fullAddress": "Columbiastraat 6, 2030 Antwerpen",
    "indicator": 29,
    "notIndicator": 9,
    "distancePercent": 75,
    "lat": 51.247542,
    "lng": 4.423875799999999
  },
  {
    "name": "De Beren",
    "street": "Antwerpsebaan",
    "nr": "152",
    "postal": "2040",
    "city": "Antwerpen",
    "type": "Stedelijk onderwijs",
    "fullAddress": "Antwerpsebaan 152, 2040 Antwerpen",
    "indicator": 1,
    "notIndicator": 10,
    "distancePercent": 80,
    "lat": 51.34428279999999,
    "lng": 4.3216341
  },
  {
    "name": "De Brem",
    "street": "Bremstraat",
    "nr": "1",
    "postal": "2040",
    "city": "Antwerpen",
    "type": "Stedelijk onderwijs",
    "fullAddress": "Bremstraat 1, 2040 Antwerpen",
    "indicator": 2,
    "notIndicator": 12,
    "distancePercent": 75,
    "lat": 51.3572749,
    "lng": 4.3258747
  },
  {
    "name": "De Brenne",
    "street": "Monnikenhofstraat",
    "nr": "3",
    "postal": "2040",
    "city": "Antwerpen",
    "type": "Vrij katholiek onderwijs",
    "fullAddress": "Monnikenhofstraat 3, 2040 Antwerpen",
    "indicator": 5,
    "notIndicator": 11,
    "distancePercent": 75,
    "lat": 51.3442813,
    "lng": 4.315086
  },
  {
    "name": "Noordland Spaanse Molenstraat",
    "street": "Spaanse Molenstraat",
    "nr": "48",
    "postal": "2040",
    "city": "Antwerpen",
    "type": "Vrij katholiek onderwijs",
    "fullAddress": "Spaanse Molenstraat 48, 2040 Antwerpen",
    "indicator": 6,
    "notIndicator": 14,
    "distancePercent": 75,
    "lat": 51.3603643,
    "lng": 4.311469199999999
  },
  {
    "name": "Aan de stroom",
    "street": "Willem van Haechtlaan",
    "nr": "66",
    "postal": "2050",
    "city": "Antwerpen",
    "type": "Stedelijk onderwijs",
    "fullAddress": "Willem van Haechtlaan 66, 2050 Antwerpen",
    "indicator": 25,
    "notIndicator": 8,
    "distancePercent": 75,
    "lat": 51.2296224,
    "lng": 4.3837597
  },
  {
    "name": "Apenstaartjes",
    "street": "Hanegraefstraat",
    "nr": "15",
    "postal": "2050",
    "city": "Antwerpen",
    "type": "Stedelijk onderwijs",
    "fullAddress": "Hanegraefstraat 15, 2050 Antwerpen",
    "indicator": 26,
    "notIndicator": 14,
    "distancePercent": 70,
    "lat": 51.2189698,
    "lng": 4.380180699999999
  },
  {
    "name": "De Dobbelsteen Emi",
    "street": "Emile Verhaerenlaan",
    "nr": "19",
    "postal": "2050",
    "city": "Antwerpen",
    "type": "Vrij katholiek onderwijs",
    "fullAddress": "Emile Verhaerenlaan 19, 2050 Antwerpen",
    "indicator": 13,
    "notIndicator": 9,
    "distancePercent": 60,
    "lat": 51.2233088,
    "lng": 4.3822378
  },
  {
    "name": "De Spits (tehuis voor schipperskinderen)",
    "street": "Thonetlaan",
    "nr": "106",
    "postal": "2050",
    "city": "Antwerpen",
    "type": "GO!",
    "fullAddress": "Thonetlaan 106, 2050 Antwerpen",
    "indicator": 6,
    "notIndicator": 0,
    "distancePercent": 50,
    "lat": 51.2248606,
    "lng": 4.3896101
  },
  {
    "name": "Sint-Anna Goethe",
    "street": "Goethestraat",
    "nr": "1",
    "postal": "2050",
    "city": "Antwerpen",
    "type": "Vrij katholiek onderwijs",
    "fullAddress": "Goethestraat 1, 2050 Antwerpen",
    "indicator": 7,
    "notIndicator": 4,
    "distancePercent": 50,
    "lat": 51.2310136,
    "lng": 4.3911631
  },
  {
    "name": "De Bijtjes",
    "street": "Offerandestraat",
    "nr": "60",
    "postal": "2060",
    "city": "Antwerpen",
    "type": "Stedelijk onderwijs",
    "fullAddress": "Offerandestraat 60, 2060 Antwerpen",
    "indicator": 30,
    "notIndicator": 9,
    "distancePercent": 50,
    "lat": 51.2204505,
    "lng": 4.4256624
  },
  {
    "name": "De Evenaar",
    "street": "Constitutiestraat",
    "nr": "61",
    "postal": "2060",
    "city": "Antwerpen",
    "type": "Stedelijk onderwijs",
    "fullAddress": "Constitutiestraat 61, 2060 Antwerpen",
    "indicator": 24,
    "notIndicator": 8,
    "distancePercent": 50,
    "lat": 51.2192387,
    "lng": 4.4279087
  },
  {
    "name": "De Gummi's",
    "street": "Sint-Gummarusstraat",
    "nr": "2",
    "postal": "2060",
    "city": "Antwerpen",
    "type": "Stedelijk onderwijs",
    "fullAddress": "Sint-Gummarusstraat 2, 2060 Antwerpen",
    "indicator": 38,
    "notIndicator": 12,
    "distancePercent": 50,
    "lat": 51.2247497,
    "lng": 4.4193149
  },
  {
    "name": "De Musjes",
    "street": "Pionierstraat",
    "nr": "35",
    "postal": "2060",
    "city": "Antwerpen",
    "type": "Stedelijk onderwijs",
    "fullAddress": "Pionierstraat 35, 2060 Antwerpen",
    "indicator": 74,
    "notIndicator": 9,
    "distancePercent": 75,
    "lat": 51.2247792,
    "lng": 4.4273639
  },
  {
    "name": "De Pijl",
    "street": "Pijlstraat",
    "nr": "2",
    "postal": "2060",
    "city": "Antwerpen",
    "type": "GO!",
    "fullAddress": "Pijlstraat 2, 2060 Antwerpen",
    "indicator": 39,
    "notIndicator": 19,
    "distancePercent": 50,
    "lat": 51.2213545,
    "lng": 4.4186701
  },
  {
    "name": "De Toverboom",
    "street": "Everaertsstraat",
    "nr": "47",
    "postal": "2060",
    "city": "Antwerpen",
    "type": "Stedelijk onderwijs",
    "fullAddress": "Everaertsstraat 47, 2060 Antwerpen",
    "indicator": 41,
    "notIndicator": 12,
    "distancePercent": 50,
    "lat": 51.2271747,
    "lng": 4.4242688
  },
  {
    "name": "De Vlinders",
    "street": "Lange Beeldekensstraat",
    "nr": "258",
    "postal": "2060",
    "city": "Antwerpen",
    "type": "Stedelijk onderwijs",
    "fullAddress": "Lange Beeldekensstraat 258, 2060 Antwerpen",
    "indicator": 30,
    "notIndicator": 8,
    "distancePercent": 80,
    "lat": 51.2218835,
    "lng": 4.434101099999999
  },
  {
    "name": "De Vuurtoren",
    "street": "Lange Kongostraat",
    "nr": "17",
    "postal": "2060",
    "city": "Antwerpen",
    "type": "Vrij katholiek onderwijs",
    "fullAddress": "Lange Kongostraat 17, 2060 Antwerpen",
    "indicator": 19,
    "notIndicator": 7,
    "distancePercent": 50,
    "lat": 51.2232675,
    "lng": 4.4377479
  },
  {
    "name": "Elisabeth",
    "street": "Sint-Elisabethstraat",
    "nr": "38A",
    "postal": "2060",
    "city": "Antwerpen",
    "type": "Stedelijk onderwijs",
    "fullAddress": "Sint-Elisabethstraat 38A, 2060 Antwerpen",
    "indicator": 12,
    "notIndicator": 6,
    "distancePercent": 70,
    "lat": 51.2224715,
    "lng": 4.424568499999999
  },
  {
    "name": "Groene Eilandje",
    "street": "Hardenvoort",
    "nr": "41",
    "postal": "2060",
    "city": "Antwerpen",
    "type": "Stedelijk onderwijs",
    "fullAddress": "Hardenvoort 41, 2060 Antwerpen",
    "indicator": 12,
    "notIndicator": 11,
    "distancePercent": 80,
    "lat": 51.231882,
    "lng": 4.4217947
  },
  {
    "name": "Het Atelier",
    "street": "Duinstraat",
    "nr": "16",
    "postal": "2060",
    "city": "Antwerpen",
    "type": "Stedelijk onderwijs",
    "fullAddress": "Duinstraat 16, 2060 Antwerpen",
    "indicator": 7,
    "notIndicator": 4,
    "distancePercent": 70,
    "lat": 51.2219673,
    "lng": 4.427300799999999
  },
  {
    "name": "Het Weilandje",
    "street": "Slachthuislaan",
    "nr": "68",
    "postal": "2060",
    "city": "Antwerpen",
    "type": "GO!",
    "fullAddress": "Slachthuislaan 68, 2060 Antwerpen",
    "indicator": 15,
    "notIndicator": 3,
    "distancePercent": 50,
    "lat": 51.2321904,
    "lng": 4.4329692
  },
  {
    "name": "Omnimundo",
    "street": "Van Maerlantstraat",
    "nr": "30",
    "postal": "2060",
    "city": "Antwerpen",
    "type": "Stedelijk onderwijs",
    "fullAddress": "Van Maerlantstraat 30, 2060 Antwerpen",
    "indicator": 14,
    "notIndicator": 4,
    "distancePercent": 50,
    "lat": 51.2233262,
    "lng": 4.4174988
  },
  {
    "name": "Sint-Aloysius",
    "street": "Vliegenstraat",
    "nr": "33-37",
    "postal": "2060",
    "city": "Antwerpen",
    "type": "Vrij katholiek onderwijs",
    "fullAddress": "Vliegenstraat 33-37, 2060 Antwerpen",
    "indicator": 10,
    "notIndicator": 7,
    "distancePercent": 80,
    "lat": 51.2255782,
    "lng": 4.421230899999999
  },
  {
    "name": "Sint-Maria",
    "street": "Lange Kongostraat",
    "nr": "21",
    "postal": "2060",
    "city": "Antwerpen",
    "type": "Vrij katholiek onderwijs",
    "fullAddress": "Lange Kongostraat 21, 2060 Antwerpen",
    "indicator": 14,
    "notIndicator": 1,
    "distancePercent": 50,
    "lat": 51.2232444,
    "lng": 4.4385674
  },
  {
    "name": "Sint-Norbertusinstituut (2060)",
    "street": "Groenstraat",
    "nr": "73",
    "postal": "2060",
    "city": "Antwerpen",
    "type": "Vrij katholiek onderwijs",
    "fullAddress": "Groenstraat 73, 2060 Antwerpen",
    "indicator": 8,
    "notIndicator": 3,
    "distancePercent": 70,
    "lat": 51.2186564,
    "lng": 4.4330533
  },
  {
    "name": "t Spoor",
    "street": "Demerstraat",
    "nr": "18",
    "postal": "2060",
    "city": "Antwerpen",
    "type": "Vrij katholiek onderwijs",
    "fullAddress": "Demerstraat 18, 2060 Antwerpen",
    "indicator": 8,
    "notIndicator": 6,
    "distancePercent": 50,
    "lat": 51.2304557,
    "lng": 4.4294841
  },
  {
    "name": "Villa Stuivenberg",
    "street": "Stuivenbergplein",
    "nr": "37",
    "postal": "2060",
    "city": "Antwerpen",
    "type": "Stedelijk onderwijs",
    "fullAddress": "Stuivenbergplein 37, 2060 Antwerpen",
    "indicator": 27,
    "notIndicator": 1,
    "distancePercent": 75,
    "lat": 51.2269958,
    "lng": 4.4316958
  },
  {
    "name": "Andromeda - Instapklas",
    "street": "Kerkhofweg",
    "nr": "20",
    "postal": "2100",
    "city": "Deurne",
    "type": "Vrij katholiek onderwijs",
    "fullAddress": "Kerkhofweg 20, 2100 Deurne",
    "indicator": 19,
    "notIndicator": 33,
    "distancePercent": 50,
    "lat": 51.2034575,
    "lng": 4.474912799999999
  },
  {
    "name": "Axijoma KS",
    "street": "de Berlaimontstraat",
    "nr": "110",
    "postal": "2100",
    "city": "Deurne",
    "type": "Vrij katholiek onderwijs",
    "fullAddress": "de Berlaimontstraat 110, 2100 Deurne",
    "indicator": 18,
    "notIndicator": 11,
    "distancePercent": 50,
    "lat": 51.2284948,
    "lng": 4.4589607
  },
  {
    "name": "De Bever",
    "street": "Albert Bevernagelei",
    "nr": "65",
    "postal": "2100",
    "city": "Deurne",
    "type": "Stedelijk onderwijs",
    "fullAddress": "Albert Bevernagelei 65, 2100 Deurne",
    "indicator": 12,
    "notIndicator": 4,
    "distancePercent": 100,
    "lat": 51.23311280000001,
    "lng": 4.4480315
  },
  {
    "name": "De Cirkel",
    "street": "Waterbaan",
    "nr": "25",
    "postal": "2100",
    "city": "Deurne",
    "type": "Stedelijk onderwijs",
    "fullAddress": "Waterbaan 25, 2100 Deurne",
    "indicator": 11,
    "notIndicator": 11,
    "distancePercent": 50,
    "lat": 51.207424,
    "lng": 4.463587599999999
  },
  {
    "name": "De Groene Egel",
    "street": "Maria de Heeltstraat",
    "nr": "114",
    "postal": "2100",
    "city": "Deurne",
    "type": "Stedelijk onderwijs",
    "fullAddress": "Maria de Heeltstraat 114, 2100 Deurne",
    "indicator": 24,
    "notIndicator": 8,
    "distancePercent": 50,
    "lat": 51.23287,
    "lng": 4.46478
  },
  {
    "name": "De Kangoeroe",
    "street": "Ruggeveldlaan",
    "nr": "699",
    "postal": "2100",
    "city": "Deurne",
    "type": "Stedelijk onderwijs",
    "fullAddress": "Ruggeveldlaan 699, 2100 Deurne",
    "indicator": 17,
    "notIndicator": 10,
    "distancePercent": 50,
    "lat": 51.2277048,
    "lng": 4.4785656
  },
  {
    "name": "De Mozaïek",
    "street": "Silsburgstraat",
    "nr": "83",
    "postal": "2100",
    "city": "Deurne",
    "type": "Stedelijk onderwijs",
    "fullAddress": "Silsburgstraat 83, 2100 Deurne",
    "indicator": 12,
    "notIndicator": 4,
    "distancePercent": 55,
    "lat": 51.20771569999999,
    "lng": 4.474980599999999
  },
  {
    "name": "De Octopus",
    "street": "Sint-Rochusstraat",
    "nr": "124",
    "postal": "2100",
    "city": "Deurne",
    "type": "Stedelijk onderwijs",
    "fullAddress": "Sint-Rochusstraat 124, 2100 Deurne",
    "indicator": 12,
    "notIndicator": 20,
    "distancePercent": 70,
    "lat": 51.2038392,
    "lng": 4.463456499999999
  },
  {
    "name": "De Speelvogel",
    "street": "Schotensesteenweg",
    "nr": "138",
    "postal": "2100",
    "city": "Deurne",
    "type": "Stedelijk onderwijs",
    "fullAddress": "Schotensesteenweg 138, 2100 Deurne",
    "indicator": 8,
    "notIndicator": 7,
    "distancePercent": 50,
    "lat": 51.2215905,
    "lng": 4.4799148
  },
  {
    "name": "De Trampoline",
    "street": "Tweegezusterslaan",
    "nr": "47b",
    "postal": "2100",
    "city": "Deurne",
    "type": "GO!",
    "fullAddress": "Tweegezusterslaan 47b, 2100 Deurne",
    "indicator": 5,
    "notIndicator": 5,
    "distancePercent": 50,
    "lat": 51.2268739,
    "lng": 4.4745279
  },
  {
    "name": "Drakenhof",
    "street": "Drakenhoflaan",
    "nr": "242",
    "postal": "2100",
    "city": "Deurne",
    "type": "Vrij katholiek onderwijs",
    "fullAddress": "Drakenhoflaan 242, 2100 Deurne",
    "indicator": 11,
    "notIndicator": 17,
    "distancePercent": 100,
    "lat": 51.1949511,
    "lng": 4.4660381
  },
  {
    "name": "Ervaringsgerichte basisschool De Linde",
    "street": "Van Steenlandstraat",
    "nr": "15",
    "postal": "2100",
    "city": "Deurne",
    "type": "Vrij katholiek onderwijs",
    "fullAddress": "Van Steenlandstraat 15, 2100 Deurne",
    "indicator": 5,
    "notIndicator": 7,
    "distancePercent": 50,
    "lat": 51.20862,
    "lng": 4.45534
  },
  {
    "name": "Freinetschool De Pientere Piste",
    "street": "August van de Wielelei",
    "nr": "136",
    "postal": "2100",
    "city": "Deurne",
    "type": "GO!",
    "fullAddress": "August van de Wielelei 136, 2100 Deurne",
    "indicator": 8,
    "notIndicator": 7,
    "distancePercent": 70,
    "lat": 51.21970870000001,
    "lng": 4.4832749
  },
  {
    "name": "Heilig Hart - De Ster",
    "street": "Seraphin de Grootestraat",
    "nr": "120",
    "postal": "2100",
    "city": "Deurne",
    "type": "Vrij katholiek onderwijs",
    "fullAddress": "Seraphin de Grootestraat 120, 2100 Deurne",
    "indicator": 15,
    "notIndicator": 10,
    "distancePercent": 80,
    "lat": 51.2207476,
    "lng": 4.4819885
  },
  {
    "name": "Het Baronneke",
    "street": "Baron Leroystraat",
    "nr": "31",
    "postal": "2100",
    "city": "Deurne",
    "type": "Stedelijk onderwijs",
    "fullAddress": "Baron Leroystraat 31, 2100 Deurne",
    "indicator": 20,
    "notIndicator": 0,
    "distancePercent": 50,
    "lat": 51.2258576,
    "lng": 4.468529
  },
  {
    "name": "Het Pieterke",
    "street": "Pieter Van Isackerlaan",
    "nr": "1a",
    "postal": "2100",
    "city": "Deurne",
    "type": "Stedelijk onderwijs",
    "fullAddress": "Pieter Van Isackerlaan 1a, 2100 Deurne",
    "indicator": 8,
    "notIndicator": 8,
    "distancePercent": 60,
    "lat": 51.2122628,
    "lng": 4.4585854
  },
  {
    "name": "Het Vliegertje",
    "street": "Fort III-straat",
    "nr": "5",
    "postal": "2100",
    "city": "Deurne",
    "type": "Stedelijk onderwijs",
    "fullAddress": "Fort III-straat 5, 2100 Deurne",
    "indicator": 8,
    "notIndicator": 16,
    "distancePercent": 75,
    "lat": 51.1942314,
    "lng": 4.472811699999999
  },
  {
    "name": "Hoedjes van Papier KS",
    "street": "Maarschalk Montgomerylaan",
    "nr": "15",
    "postal": "2100",
    "city": "Deurne",
    "type": "Stedelijk onderwijs",
    "fullAddress": "Maarschalk Montgomerylaan 15, 2100 Deurne",
    "indicator": 3,
    "notIndicator": 6,
    "distancePercent": 50,
    "lat": 51.1985474,
    "lng": 4.4673073
  },
  {
    "name": "Immaculata",
    "street": "Van Dornestraat",
    "nr": "125",
    "postal": "2100",
    "city": "Deurne",
    "type": "Vrij katholiek onderwijs",
    "fullAddress": "Van Dornestraat 125, 2100 Deurne",
    "indicator": 21,
    "notIndicator": 5,
    "distancePercent": 50,
    "lat": 51.2300821,
    "lng": 4.4493692
  },
  {
    "name": "Inpeeria",
    "street": "De Gryspeerstraat",
    "nr": "84",
    "postal": "2100",
    "city": "Deurne",
    "type": "Stedelijk onderwijs",
    "fullAddress": "De Gryspeerstraat 84, 2100 Deurne",
    "indicator": 0,
    "notIndicator": 5,
    "distancePercent": 75,
    "lat": 51.2270001,
    "lng": 4.451218799999999
  },
  {
    "name": "Kadee",
    "street": "Frank Craeybeckxlaan",
    "nr": "24",
    "postal": "2100",
    "city": "Deurne",
    "type": "GO!",
    "fullAddress": "Frank Craeybeckxlaan 24, 2100 Deurne",
    "indicator": 0,
    "notIndicator": 1,
    "distancePercent": 75,
    "lat": 51.2219729,
    "lng": 4.4595405
  },
  {
    "name": "Koekatoe",
    "street": "Haviklaan",
    "nr": "2",
    "postal": "2100",
    "city": "Deurne",
    "type": "Stedelijk onderwijs",
    "fullAddress": "Haviklaan 2, 2100 Deurne",
    "indicator": 19,
    "notIndicator": 25,
    "distancePercent": 50,
    "lat": 51.22301299999999,
    "lng": 4.4881373
  },
  {
    "name": "Kriebel",
    "street": "Lakborslei",
    "nr": "262",
    "postal": "2100",
    "city": "Deurne",
    "type": "Stedelijk onderwijs",
    "fullAddress": "Lakborslei 262, 2100 Deurne",
    "indicator": 23,
    "notIndicator": 8,
    "distancePercent": 50,
    "lat": 51.2293455,
    "lng": 4.4548513
  },
  {
    "name": "Land van Nu Boekenberglei",
    "street": "Boekenberglei",
    "nr": "284",
    "postal": "2100",
    "city": "Deurne",
    "type": "Stedelijk onderwijs",
    "fullAddress": "Boekenberglei 284, 2100 Deurne",
    "indicator": 5,
    "notIndicator": 12,
    "distancePercent": 80,
    "lat": 51.1940927,
    "lng": 4.457403600000001
  },
  {
    "name": "Sancta Maria COEV KS, LS (1-2-3-4)",
    "street": "Coeveltstraat",
    "nr": "7A",
    "postal": "2100",
    "city": "Deurne",
    "type": "Vrij katholiek onderwijs",
    "fullAddress": "Coeveltstraat 7A, 2100 Deurne",
    "indicator": 10,
    "notIndicator": 5,
    "distancePercent": 50,
    "lat": 51.2210153,
    "lng": 4.45576
  },
  {
    "name": "Sancta Maria KS, LS (1-2-3-4)",
    "street": "Pieter de Ridderstraat",
    "nr": "5",
    "postal": "2100",
    "city": "Deurne",
    "type": "Vrij katholiek onderwijs",
    "fullAddress": "Pieter de Ridderstraat 5, 2100 Deurne",
    "indicator": 8,
    "notIndicator": 15,
    "distancePercent": 50,
    "lat": 51.22306039999999,
    "lng": 4.4604276
  },
  {
    "name": "Sint Godelieve",
    "street": "Van Cortbeemdelei",
    "nr": "277",
    "postal": "2100",
    "city": "Deurne",
    "type": "Vrij katholiek onderwijs",
    "fullAddress": "Van Cortbeemdelei 277, 2100 Deurne",
    "indicator": 7,
    "notIndicator": 3,
    "distancePercent": 75,
    "lat": 51.2337305,
    "lng": 4.4512504
  },
  {
    "name": "Sint-Bernadette",
    "street": "Antoon Van Den Bosschelaan",
    "nr": "145",
    "postal": "2100",
    "city": "Deurne",
    "type": "Vrij katholiek onderwijs",
    "fullAddress": "Antoon Van Den Bosschelaan 145, 2100 Deurne",
    "indicator": 4,
    "notIndicator": 7,
    "distancePercent": 50,
    "lat": 51.23073489999999,
    "lng": 4.4779697
  },
  {
    "name": "Sint-Rumoldus",
    "street": "Paulus Beyestraat",
    "nr": "153",
    "postal": "2100",
    "city": "Deurne",
    "type": "Vrij katholiek onderwijs",
    "fullAddress": "Paulus Beyestraat 153, 2100 Deurne",
    "indicator": 10,
    "notIndicator": 7,
    "distancePercent": 70,
    "lat": 51.2239855,
    "lng": 4.4727391
  },
  {
    "name": "t Speelscholeke (ervaringsgericht onderwijs)",
    "street": "Hertstraat",
    "nr": "7",
    "postal": "2100",
    "city": "Deurne",
    "type": "Vrij onderwijs",
    "fullAddress": "Hertstraat 7, 2100 Deurne",
    "indicator": 4,
    "notIndicator": 4,
    "distancePercent": 50,
    "lat": 51.21927849999999,
    "lng": 4.4569152
  },
  {
    "name": "Tiptop",
    "street": "Van den Hautelei",
    "nr": "79a",
    "postal": "2100",
    "city": "Deurne",
    "type": "Stedelijk onderwijs",
    "fullAddress": "Van den Hautelei 79a, 2100 Deurne",
    "indicator": 9,
    "notIndicator": 9,
    "distancePercent": 60,
    "lat": 51.2043071,
    "lng": 4.4676957
  },
  {
    "name": "De Esdoorn",
    "street": "Vinçottestraat",
    "nr": "44",
    "postal": "2140",
    "city": "Borgerhout",
    "type": "Stedelijk onderwijs",
    "fullAddress": "Vinçottestraat 44, 2140 Borgerhout",
    "indicator": 21,
    "notIndicator": 12,
    "distancePercent": 75,
    "lat": 51.2168609,
    "lng": 4.438107
  },
  {
    "name": "De Horizon",
    "street": "Betogingstraat",
    "nr": "9",
    "postal": "2140",
    "city": "Borgerhout",
    "type": "Stedelijk onderwijs",
    "fullAddress": "Betogingstraat 9, 2140 Borgerhout",
    "indicator": 5,
    "notIndicator": 2,
    "distancePercent": 70,
    "lat": 51.2104166,
    "lng": 4.4341941
  },
  {
    "name": "De Reuzenpoort",
    "street": "Zonstraat",
    "nr": "71",
    "postal": "2140",
    "city": "Borgerhout",
    "type": "Vrij katholiek onderwijs",
    "fullAddress": "Zonstraat 71, 2140 Borgerhout",
    "indicator": 0,
    "notIndicator": 5,
    "distancePercent": 50,
    "lat": 51.2142333,
    "lng": 4.432587799999999
  },
  {
    "name": "De Vlinderboom KS",
    "street": "te Boelaarpark",
    "nr": "3",
    "postal": "2140",
    "city": "Borgerhout",
    "type": "Stedelijk onderwijs",
    "fullAddress": "te Boelaarpark 3, 2140 Borgerhout",
    "indicator": 18,
    "notIndicator": 31,
    "distancePercent": 95,
    "lat": 51.2024217,
    "lng": 4.4522849
  },
  {
    "name": "De Zevensprong",
    "street": "Helmstraat",
    "nr": "32",
    "postal": "2140",
    "city": "Borgerhout",
    "type": "Vrij katholiek onderwijs",
    "fullAddress": "Helmstraat 32, 2140 Borgerhout",
    "indicator": 17,
    "notIndicator": 6,
    "distancePercent": 50,
    "lat": 51.2165591,
    "lng": 4.4315558
  },
  {
    "name": "Flora",
    "street": "Florastraat",
    "nr": "120",
    "postal": "2140",
    "city": "Borgerhout",
    "type": "Stedelijk onderwijs",
    "fullAddress": "Florastraat 120, 2140 Borgerhout",
    "indicator": 19,
    "notIndicator": 0,
    "distancePercent": 100,
    "lat": 51.2189117,
    "lng": 4.4419487
  },
  {
    "name": "Franciscusschool",
    "street": "Berchemlei",
    "nr": "93",
    "postal": "2140",
    "city": "Borgerhout",
    "type": "Vrij katholiek onderwijs",
    "fullAddress": "Berchemlei 93, 2140 Borgerhout",
    "indicator": 3,
    "notIndicator": 14,
    "distancePercent": 70,
    "lat": 51.20524409999999,
    "lng": 4.4485997
  },
  {
    "name": "Het Talent",
    "street": "Juul Grietensstraat",
    "nr": "8",
    "postal": "2140",
    "city": "Borgerhout",
    "type": "Stedelijk onderwijs",
    "fullAddress": "Juul Grietensstraat 8, 2140 Borgerhout",
    "indicator": 13,
    "notIndicator": 2,
    "distancePercent": 50,
    "lat": 51.2106869,
    "lng": 4.4483144
  },
  {
    "name": "IQRA-school",
    "street": "HogeWeg",
    "nr": "51",
    "postal": "2140",
    "city": "Borgerhout",
    "type": "Vrij onderwijs",
    "fullAddress": "HogeWeg 51, 2140 Borgerhout",
    "indicator": 13,
    "notIndicator": 4,
    "distancePercent": 75,
    "lat": 51.2133587,
    "lng": 4.4440191
  },
  {
    "name": "Kleine Muze",
    "street": "maarschalk Montgomeryplein",
    "nr": "8",
    "postal": "2140",
    "city": "Borgerhout",
    "type": "Stedelijk onderwijs",
    "fullAddress": "maarschalk Montgomeryplein 8, 2140 Borgerhout",
    "indicator": 4,
    "notIndicator": 1,
    "distancePercent": 50,
    "lat": 51.2115685,
    "lng": 4.4383054
  },
  {
    "name": "Mariagaarde",
    "street": "Griffier Schobbenslaan",
    "nr": "45",
    "postal": "2140",
    "city": "Borgerhout",
    "type": "Vrij katholiek onderwijs",
    "fullAddress": "Griffier Schobbenslaan 45, 2140 Borgerhout",
    "indicator": 19,
    "notIndicator": 4,
    "distancePercent": 50,
    "lat": 51.214592,
    "lng": 4.456746
  },
  {
    "name": "Mikado",
    "street": "Borgerhoutsestraat",
    "nr": "74",
    "postal": "2140",
    "city": "Borgerhout",
    "type": "Vrij katholiek onderwijs",
    "fullAddress": "Borgerhoutsestraat 74, 2140 Borgerhout",
    "indicator": 7,
    "notIndicator": 8,
    "distancePercent": 50,
    "lat": 51.2129917,
    "lng": 4.428941099999999
  },
  {
    "name": "Mozaïek",
    "street": "Schoenstraat",
    "nr": "41",
    "postal": "2140",
    "city": "Borgerhout",
    "type": "Vrij katholiek onderwijs",
    "fullAddress": "Schoenstraat 41, 2140 Borgerhout",
    "indicator": 8,
    "notIndicator": 7,
    "distancePercent": 50,
    "lat": 51.2135249,
    "lng": 4.4363269
  },
  {
    "name": "Plantijntje",
    "street": "Plantin en Moretuslei",
    "nr": "163",
    "postal": "2140",
    "city": "Borgerhout",
    "type": "GO!",
    "fullAddress": "Plantin en Moretuslei 163, 2140 Borgerhout",
    "indicator": 19,
    "notIndicator": 16,
    "distancePercent": 70,
    "lat": 51.21102759999999,
    "lng": 4.4316187
  },
  {
    "name": "Steinerschool De Kleine Wereldburger",
    "street": "Generaal De Wetstraat",
    "nr": "16",
    "postal": "2140",
    "city": "Borgerhout",
    "type": "Vrij onderwijs",
    "fullAddress": "Generaal De Wetstraat 16, 2140 Borgerhout",
    "indicator": 5,
    "notIndicator": 14,
    "distancePercent": 50,
    "lat": 51.2165605,
    "lng": 4.4396828
  },
  {
    "name": "Xaveriuscollege KS",
    "street": "Stenenbrug",
    "nr": "65-67",
    "postal": "2140",
    "city": "Borgerhout",
    "type": "Vrij katholiek onderwijs",
    "fullAddress": "Collegelaan 36, 2140 Borgerhout",
    "indicator": 9,
    "notIndicator": 8,
    "distancePercent": 50,
    "lat": 51.213252,
    "lng": 4.450476
  },
  {
    "name": "De Luchtballon",
    "street": "Borrewaterstraat",
    "nr": "70",
    "postal": "2170",
    "city": "Merksem",
    "type": "Stedelijk onderwijs",
    "fullAddress": "Borrewaterstraat 70, 2170 Merksem",
    "indicator": 13,
    "notIndicator": 7,
    "distancePercent": 50,
    "lat": 51.2407199,
    "lng": 4.4446993
  },
  {
    "name": "GVKS Groenendaal",
    "street": "Stella Marisstraat",
    "nr": "3",
    "postal": "2170",
    "city": "Merksem",
    "type": "Vrij katholiek onderwijs",
    "fullAddress": "Stella Marisstraat 3, 2170 Merksem",
    "indicator": 26,
    "notIndicator": 11,
    "distancePercent": 70,
    "lat": 51.2425272,
    "lng": 4.437693299999999
  },
  {
    "name": "Het Laerhof",
    "street": "Laarsebaan",
    "nr": "100",
    "postal": "2170",
    "city": "Merksem",
    "type": "GO!",
    "fullAddress": "Laarsebaan 100, 2170 Merksem",
    "indicator": 24,
    "notIndicator": 15,
    "distancePercent": 50,
    "lat": 51.24901449999999,
    "lng": 4.4353875
  },
  {
    "name": "JOMA Hoofdschool",
    "street": "Frans Adriaenssensstraat",
    "nr": "123",
    "postal": "2170",
    "city": "Merksem",
    "type": "Vrij katholiek onderwijs",
    "fullAddress": "Frans Adriaenssensstraat 123, 2170 Merksem",
    "indicator": 0,
    "notIndicator": 0,
    "distancePercent": 85,
    "lat": 51.2543393,
    "lng": 4.4417825
  },
  {
    "name": "JOMA Kleuterschool en 1 lj",
    "street": "Laaglandlaan",
    "nr": "232A",
    "postal": "2170",
    "city": "Merksem",
    "type": "Vrij katholiek onderwijs",
    "fullAddress": "Laaglandlaan 232A, 2170 Merksem",
    "indicator": 21,
    "notIndicator": 10,
    "distancePercent": 85,
    "lat": 51.257424,
    "lng": 4.4447502
  },
  {
    "name": "Melgesdreef",
    "street": "Melgesdreef",
    "nr": "113",
    "postal": "2170",
    "city": "Merksem",
    "type": "GO!",
    "fullAddress": "Melgesdreef 113, 2170 Merksem",
    "indicator": 26,
    "notIndicator": 13,
    "distancePercent": 50,
    "lat": 51.2560402,
    "lng": 4.455210399999999
  },
  {
    "name": "Sint-Eduardusbasisschool",
    "street": "Broeder Frederikstraat",
    "nr": "3",
    "postal": "2170",
    "city": "Merksem",
    "type": "Vrij katholiek onderwijs",
    "fullAddress": "Broeder Frederikstraat 3, 2170 Merksem",
    "indicator": 11,
    "notIndicator": 16,
    "distancePercent": 50,
    "lat": 51.245176,
    "lng": 4.4515207
  },
  {
    "name": "Sint-Jozef Merksem",
    "street": "Winkelstap",
    "nr": "108",
    "postal": "2170",
    "city": "Merksem",
    "type": "Vrij katholiek onderwijs",
    "fullAddress": "Winkelstap 108, 2170 Merksem",
    "indicator": 8,
    "notIndicator": 7,
    "distancePercent": 70,
    "lat": 51.2522248,
    "lng": 4.464829
  },
  {
    "name": "Sint-Ludgardis Campus KVO",
    "street": "Bredabaan",
    "nr": "814A",
    "postal": "2170",
    "city": "Merksem",
    "type": "Vrij katholiek onderwijs",
    "fullAddress": "Bredabaan 814A, 2170 Merksem",
    "indicator": 2,
    "notIndicator": 5,
    "distancePercent": 50,
    "lat": 51.2521636,
    "lng": 4.4561719
  },
  {
    "name": "Sint-Ludgardisschool",
    "street": "Du Chastellei",
    "nr": "48",
    "postal": "2170",
    "city": "Merksem",
    "type": "Vrij katholiek onderwijs",
    "fullAddress": "Du Chastellei 48, 2170 Merksem",
    "indicator": 11,
    "notIndicator": 19,
    "distancePercent": 50,
    "lat": 51.2505931,
    "lng": 4.4519448
  },
  {
    "name": "Virgo Maria-instituut KS",
    "street": "Terlindenhofstraat",
    "nr": "220",
    "postal": "2170",
    "city": "Merksem",
    "type": "Vrij katholiek onderwijs",
    "fullAddress": "Terlindenhofstraat 220, 2170 Merksem",
    "indicator": 5,
    "notIndicator": 13,
    "distancePercent": 50,
    "lat": 51.24832809999999,
    "lng": 4.4430537
  },
  {
    "name": "3Hoek",
    "street": "Kloosterstraat",
    "nr": "39",
    "postal": "2180",
    "city": "Ekeren",
    "type": "GO!",
    "fullAddress": "Kloosterstraat 39, 2180 Ekeren",
    "indicator": 13,
    "notIndicator": 18,
    "distancePercent": 50,
    "lat": 51.2807924,
    "lng": 4.4185342
  },
  {
    "name": "de Bunt",
    "street": "Waterstraat",
    "nr": "16",
    "postal": "2180",
    "city": "Ekeren",
    "type": "Vrij katholiek onderwijs",
    "fullAddress": "Waterstraat 16, 2180 Ekeren",
    "indicator": 12,
    "notIndicator": 0,
    "distancePercent": 80,
    "lat": 51.2841368,
    "lng": 4.428276299999999
  },
  {
    "name": "De Kleurenboom",
    "street": "Pastoor Goetschalckxstraat",
    "nr": "57",
    "postal": "2180",
    "city": "Ekeren",
    "type": "Stedelijk onderwijs",
    "fullAddress": "Pastoor Goetschalckxstraat 57, 2180 Ekeren",
    "indicator": 3,
    "notIndicator": 16,
    "distancePercent": 50,
    "lat": 51.2780163,
    "lng": 4.450455
  },
  {
    "name": "De Waterval (ervaringsgerichte school)",
    "street": "Veltwijcklaan",
    "nr": "134",
    "postal": "2180",
    "city": "Ekeren",
    "type": "Vrij onderwijs",
    "fullAddress": "Veltwijcklaan 134, 2180 Ekeren",
    "indicator": 3,
    "notIndicator": 7,
    "distancePercent": 50,
    "lat": 51.2794684,
    "lng": 4.4271227
  },
  {
    "name": "De Witte Merel (ervaringsgerichte school)",
    "street": "Kapelsesteenweg",
    "nr": "165",
    "postal": "2180",
    "city": "Ekeren",
    "type": "Vrij onderwijs",
    "fullAddress": "Kapelsesteenweg 165, 2180 Ekeren",
    "indicator": 1,
    "notIndicator": 3,
    "distancePercent": 50,
    "lat": 51.2742021,
    "lng": 4.4564949
  },
  {
    "name": "O.-L.-V. van Lourdesinstituut KS Alfons Jeurissenstraat 13",
    "street": "Alfons Jeurissenstraat",
    "nr": "13",
    "postal": "2180",
    "city": "Ekeren",
    "type": "Vrij katholiek onderwijs",
    "fullAddress": "Alfons Jeurissenstraat 13, 2180 Ekeren",
    "indicator": 8,
    "notIndicator": 3,
    "distancePercent": 50,
    "lat": 51.2778146,
    "lng": 4.4199003
  },
  {
    "name": "O.-L.-V. van Lourdesinstituut KS Kloosterstraat",
    "street": "Kloosterstraat",
    "nr": "82",
    "postal": "2180",
    "city": "Ekeren",
    "type": "Vrij katholiek onderwijs",
    "fullAddress": "Kloosterstraat 82, 2180 Ekeren",
    "indicator": 9,
    "notIndicator": 10,
    "distancePercent": 50,
    "lat": 51.28222,
    "lng": 4.41733
  },
  {
    "name": "Sint-Jozef Ekeren",
    "street": "Prinshoeveweg",
    "nr": "44",
    "postal": "2180",
    "city": "Ekeren",
    "type": "Vrij katholiek onderwijs",
    "fullAddress": "Prinshoeveweg 44, 2180 Ekeren",
    "indicator": 8,
    "notIndicator": 19,
    "distancePercent": 90,
    "lat": 51.2794421,
    "lng": 4.4500908
  },
  {
    "name": "Sint-Lambertus",
    "street": "Oorderseweg",
    "nr": "8",
    "postal": "2180",
    "city": "Ekeren",
    "type": "Vrij katholiek onderwijs",
    "fullAddress": "Oorderseweg 8, 2180 Ekeren",
    "indicator": 7,
    "notIndicator": 10,
    "distancePercent": 50,
    "lat": 51.2786118,
    "lng": 4.4163786
  },
  {
    "name": "Sint-Vincentschool",
    "street": "Leugenberg",
    "nr": "143",
    "postal": "2180",
    "city": "Ekeren",
    "type": "Vrij katholiek onderwijs",
    "fullAddress": "Leugenberg 143, 2180 Ekeren",
    "indicator": 4,
    "notIndicator": 13,
    "distancePercent": 90,
    "lat": 51.2978174,
    "lng": 4.410589799999999
  },
  {
    "name": "VBSM",
    "street": "Frans Standaertlei",
    "nr": "54",
    "postal": "2180",
    "city": "Ekeren",
    "type": "Vrij katholiek onderwijs",
    "fullAddress": "Frans Standaertlei 54, 2180 Ekeren",
    "indicator": 8,
    "notIndicator": 34,
    "distancePercent": 70,
    "lat": 51.2928675,
    "lng": 4.4390886
  },
  {
    "name": "Veltwijck",
    "street": "Veltwijcklaan",
    "nr": "235",
    "postal": "2180",
    "city": "Ekeren",
    "type": "GO!",
    "fullAddress": "Veltwijcklaan 235, 2180 Ekeren",
    "indicator": 4,
    "notIndicator": 14,
    "distancePercent": 70,
    "lat": 51.28133039999999,
    "lng": 4.4415391
  },
  {
    "name": "Willem Tell",
    "street": "Kruisboogstraat",
    "nr": "49",
    "postal": "2180",
    "city": "Ekeren",
    "type": "Stedelijk onderwijs",
    "fullAddress": "Kruisboogstraat 49, 2180 Ekeren",
    "indicator": 11,
    "notIndicator": 11,
    "distancePercent": 80,
    "lat": 51.27646559999999,
    "lng": 4.4098793
  },
  {
    "name": "De Knikkerbaan",
    "street": "Frederik de Merodestraat",
    "nr": "36",
    "postal": "2600",
    "city": "Berchem",
    "type": "Vrij katholiek onderwijs",
    "fullAddress": "Frederik de Merodestraat 36, 2600 Berchem",
    "indicator": 5,
    "notIndicator": 7,
    "distancePercent": 70,
    "lat": 51.1952688,
    "lng": 4.4165797
  },
  {
    "name": "De Kolibrie KS",
    "street": "Sint-Hubertusstraat",
    "nr": "13",
    "postal": "2600",
    "city": "Berchem",
    "type": "Stedelijk onderwijs",
    "fullAddress": "Sint-Hubertusstraat 13, 2600 Berchem",
    "indicator": 6,
    "notIndicator": 7,
    "distancePercent": 70,
    "lat": 51.1964191,
    "lng": 4.4163544
  },
  {
    "name": "De Schatkist",
    "street": "Ferdinand Coosemansstraat",
    "nr": "15",
    "postal": "2600",
    "city": "Berchem",
    "type": "Vrij katholiek onderwijs",
    "fullAddress": "Ferdinand Coosemansstraat 15, 2600 Berchem",
    "indicator": 21,
    "notIndicator": 10,
    "distancePercent": 50,
    "lat": 51.197491,
    "lng": 4.4178668
  },
  {
    "name": "Freinetschool De kRing",
    "street": "Uitbreidingstraat",
    "nr": "251",
    "postal": "2600",
    "city": "Berchem",
    "type": "GO!",
    "fullAddress": "Uitbreidingstraat 251, 2600 Berchem",
    "indicator": 13,
    "notIndicator": 16,
    "distancePercent": 50,
    "lat": 51.1935788,
    "lng": 4.423645
  },
  {
    "name": "Freinetschool Het Avontuur",
    "street": "filip Williotstraat",
    "nr": "11",
    "postal": "2600",
    "city": "Berchem",
    "type": "GO!",
    "fullAddress": "filip Williotstraat 11, 2600 Berchem",
    "indicator": 5,
    "notIndicator": 18,
    "distancePercent": 50,
    "lat": 51.1875636,
    "lng": 4.4357466
  },
  {
    "name": "Fruithof",
    "street": "Flor Alpaertsstraat",
    "nr": "45",
    "postal": "2600",
    "city": "Berchem",
    "type": "Stedelijk onderwijs",
    "fullAddress": "Flor Alpaertsstraat 45, 2600 Berchem",
    "indicator": 5,
    "notIndicator": 10,
    "distancePercent": 60,
    "lat": 51.1817771,
    "lng": 4.440902299999999
  },
  {
    "name": "Heilige Familie",
    "street": "Jan Moorkensstraat",
    "nr": "95",
    "postal": "2600",
    "city": "Berchem",
    "type": "Vrij katholiek onderwijs",
    "fullAddress": "Jan Moorkensstraat 95, 2600 Berchem",
    "indicator": 11,
    "notIndicator": 17,
    "distancePercent": 50,
    "lat": 51.18827520000001,
    "lng": 4.432707199999999
  },
  {
    "name": "Het Hinkelpad",
    "street": "Geluwestraat",
    "nr": "4",
    "postal": "2600",
    "city": "Berchem",
    "type": "Vrij katholiek onderwijs",
    "fullAddress": "Geluwestraat 4, 2600 Berchem",
    "indicator": 18,
    "notIndicator": 20,
    "distancePercent": 70,
    "lat": 51.1950336,
    "lng": 4.442688299999999
  },
  {
    "name": "Het Palet",
    "street": "Ramskapellestraat",
    "nr": "43",
    "postal": "2600",
    "city": "Berchem",
    "type": "Stedelijk onderwijs",
    "fullAddress": "Ramskapellestraat 43, 2600 Berchem",
    "indicator": 21,
    "notIndicator": 12,
    "distancePercent": 70,
    "lat": 51.19429299999999,
    "lng": 4.446216
  },
  {
    "name": "Klavertjevier KS",
    "street": "Arthur Sterckstraat",
    "nr": "61",
    "postal": "2600",
    "city": "Berchem",
    "type": "Stedelijk onderwijs",
    "fullAddress": "Arthur Sterckstraat 61, 2600 Berchem",
    "indicator": 6,
    "notIndicator": 9,
    "distancePercent": 70,
    "lat": 51.1972204,
    "lng": 4.4296827
  },
  {
    "name": "Leopold 3",
    "street": "Mellinetplein",
    "nr": "13",
    "postal": "2600",
    "city": "Berchem",
    "type": "Stedelijk onderwijs",
    "fullAddress": "Mellinetplein 13, 2600 Berchem",
    "indicator": 4,
    "notIndicator": 19,
    "distancePercent": 60,
    "lat": 51.18045530000001,
    "lng": 4.429651799999999
  },
  {
    "name": "O.-L.-Vrouwinstituut Pulhof KS",
    "street": "Floraliënlaan",
    "nr": "370/2",
    "postal": "2600",
    "city": "Berchem",
    "type": "Vrij katholiek onderwijs",
    "fullAddress": "Floraliënlaan 370/2, 2600 Berchem",
    "indicator": 14,
    "notIndicator": 35,
    "distancePercent": 75,
    "lat": 51.1805736,
    "lng": 4.4266732
  },
  {
    "name": "Steinerschool Antwerpen Transvaalstraat ('t Speelschooltje)",
    "street": "Transvaalstraat",
    "nr": "21",
    "postal": "2600",
    "city": "Berchem",
    "type": "Vrij onderwijs",
    "fullAddress": "Transvaalstraat 21, 2600 Berchem",
    "indicator": 4,
    "notIndicator": 7,
    "distancePercent": 50,
    "lat": 51.2033599,
    "lng": 4.430755899999999
  },
  {
    "name": "De Ark",
    "street": "Valkenveld",
    "nr": "73",
    "postal": "2610",
    "city": "Wilrijk",
    "type": "Vrij katholiek onderwijs",
    "fullAddress": "Valkenveld 73, 2610 Wilrijk",
    "indicator": 4,
    "notIndicator": 20,
    "distancePercent": 85,
    "lat": 51.1685373,
    "lng": 4.3875559
  },
  {
    "name": "De Letter",
    "street": "Letterkundestraat",
    "nr": "39",
    "postal": "2610",
    "city": "Wilrijk",
    "type": "Stedelijk onderwijs",
    "fullAddress": "Letterkundestraat 39, 2610 Wilrijk",
    "indicator": 14,
    "notIndicator": 13,
    "distancePercent": 50,
    "lat": 51.18043520000001,
    "lng": 4.381552699999999
  },
  {
    "name": "De Zonnebloem",
    "street": "Boomsesteenweg",
    "nr": "387",
    "postal": "2610",
    "city": "Wilrijk",
    "type": "Stedelijk onderwijs",
    "fullAddress": "Boomsesteenweg 387, 2610 Wilrijk",
    "indicator": 7,
    "notIndicator": 11,
    "distancePercent": 65,
    "lat": 51.1660145,
    "lng": 4.3862418
  },
  {
    "name": "Johannesschool",
    "street": "Frans Stienletlaan",
    "nr": "39",
    "postal": "2610",
    "city": "Wilrijk",
    "type": "Vrij katholiek onderwijs",
    "fullAddress": "Frans Stienletlaan 39, 2610 Wilrijk",
    "indicator": 21,
    "notIndicator": 12,
    "distancePercent": 70,
    "lat": 51.1779111,
    "lng": 4.3762488
  },
  {
    "name": "Neerland",
    "street": "Mogendhedenlaan",
    "nr": "1",
    "postal": "2610",
    "city": "Wilrijk",
    "type": "Vrij katholiek onderwijs",
    "fullAddress": "Mogendhedenlaan 1, 2610 Wilrijk",
    "indicator": 2,
    "notIndicator": 2,
    "distancePercent": 100,
    "lat": 51.15227729999999,
    "lng": 4.391145799999999
  },
  {
    "name": "Parkschool Ieperman",
    "street": "Kerkelei",
    "nr": "43",
    "postal": "2610",
    "city": "Wilrijk",
    "type": "GO!",
    "fullAddress": "Kerkelei 43, 2610 Wilrijk",
    "indicator": 4,
    "notIndicator": 23,
    "distancePercent": 50,
    "lat": 51.1681041,
    "lng": 4.3977745
  },
  {
    "name": "Pius X (Kleine Stan)",
    "street": "Groenenborgerlaan",
    "nr": "212",
    "postal": "2610",
    "city": "Wilrijk",
    "type": "Vrij katholiek onderwijs",
    "fullAddress": "Groenenborgerlaan 212, 2610 Wilrijk",
    "indicator": 3,
    "notIndicator": 15,
    "distancePercent": 50,
    "lat": 51.1773427,
    "lng": 4.422479099999999
  },
  {
    "name": "Prins Boudewijn",
    "street": "Spoorweglaan",
    "nr": "145",
    "postal": "2610",
    "city": "Wilrijk",
    "type": "Stedelijk onderwijs",
    "fullAddress": "Spoorweglaan 145, 2610 Wilrijk",
    "indicator": 2,
    "notIndicator": 12,
    "distancePercent": 50,
    "lat": 51.17367240000001,
    "lng": 4.4239367
  },
  {
    "name": "Rozenkransschool",
    "street": "Heistraat",
    "nr": "255",
    "postal": "2610",
    "city": "Wilrijk",
    "type": "Vrij katholiek onderwijs",
    "fullAddress": "Heistraat 255, 2610 Wilrijk",
    "indicator": 4,
    "notIndicator": 6,
    "distancePercent": 50,
    "lat": 51.1779024,
    "lng": 4.3922571
  },
  {
    "name": "Sint-Ursula-Instituut KS",
    "street": "Kerkhofstraat",
    "nr": "1A",
    "postal": "2610",
    "city": "Wilrijk",
    "type": "Vrij katholiek onderwijs",
    "fullAddress": "Kerkhofstraat 1A, 2610 Wilrijk",
    "indicator": 16,
    "notIndicator": 16,
    "distancePercent": 100,
    "lat": 51.1719413,
    "lng": 4.400261
  },
  {
    "name": "Steinerschool Lohrangrin",
    "street": "Boomsesteenweg",
    "nr": "94",
    "postal": "2610",
    "city": "Wilrijk",
    "type": "Vrij onderwijs",
    "fullAddress": "Boomsesteenweg 94, 2610 Wilrijk",
    "indicator": 4,
    "notIndicator": 10,
    "distancePercent": 50,
    "lat": 51.1789541,
    "lng": 4.388476199999999
  },
  {
    "name": "Accent Jules Baeckelmanslaan",
    "street": "Jules Baeckelmanslaan",
    "nr": "29",
    "postal": "2660",
    "city": "Hoboken",
    "type": "Stedelijk onderwijs",
    "fullAddress": "Jules Baeckelmanslaan 29, 2660 Hoboken",
    "indicator": 9,
    "notIndicator": 8,
    "distancePercent": 50,
    "lat": 51.1719853,
    "lng": 4.3677246
  },
  {
    "name": "Accent Romestraat",
    "street": "Romestraat",
    "nr": "20",
    "postal": "2660",
    "city": "Hoboken",
    "type": "Stedelijk onderwijs",
    "fullAddress": "Romestraat 20, 2660 Hoboken",
    "indicator": 9,
    "notIndicator": 14,
    "distancePercent": 50,
    "lat": 51.1719853,
    "lng": 4.3677246
  },
  {
    "name": "De Molen Krugerstraat",
    "street": "Krugerstraat",
    "nr": "26",
    "postal": "2660",
    "city": "Hoboken",
    "type": "Stedelijk onderwijs",
    "fullAddress": "Krugerstraat 26, 2660 Hoboken",
    "indicator": 18,
    "notIndicator": 6,
    "distancePercent": 50,
    "lat": 51.17356650000001,
    "lng": 4.3629164
  },
  {
    "name": "De Molen Onderwijzersstraat",
    "street": "Onderwijzersstraat",
    "nr": "13",
    "postal": "2660",
    "city": "Hoboken",
    "type": "Stedelijk onderwijs",
    "fullAddress": "Onderwijzersstraat 13, 2660 Hoboken",
    "indicator": 8,
    "notIndicator": 10,
    "distancePercent": 50,
    "lat": 51.17356650000001,
    "lng": 4.3629164
  },
  {
    "name": "De Puzzel",
    "street": "Krugerstraat",
    "nr": "103",
    "postal": "2660",
    "city": "Hoboken",
    "type": "Vrij katholiek onderwijs",
    "fullAddress": "Krugerstraat 103, 2660 Hoboken",
    "indicator": 3,
    "notIndicator": 5,
    "distancePercent": 70,
    "lat": 51.1840899,
    "lng": 4.3686371
  },
  {
    "name": "De Schakel",
    "street": "Weerstandlaan",
    "nr": "141",
    "postal": "2660",
    "city": "Hoboken",
    "type": "GO!",
    "fullAddress": "Weerstandlaan 141, 2660 Hoboken",
    "indicator": 31,
    "notIndicator": 5,
    "distancePercent": 100,
    "lat": 51.1871444,
    "lng": 4.3709184
  },
  {
    "name": "Don Bosco",
    "street": "Sint-Bernardsesteenweg",
    "nr": "665",
    "postal": "2660",
    "city": "Hoboken",
    "type": "Vrij katholiek onderwijs",
    "fullAddress": "Sint-Bernardsesteenweg 665, 2660 Hoboken",
    "indicator": 17,
    "notIndicator": 13,
    "distancePercent": 70,
    "lat": 51.1739317,
    "lng": 4.3663259
  },
  {
    "name": "Familiale School Edward Poppe",
    "street": "Fodderiestraat",
    "nr": "12",
    "postal": "2660",
    "city": "Hoboken",
    "type": "Vrij onderwijs",
    "fullAddress": "Fodderiestraat 12, 2660 Hoboken",
    "indicator": 3,
    "notIndicator": 2,
    "distancePercent": 50,
    "lat": 51.1790905,
    "lng": 4.3449801
  },
  {
    "name": "Freinetschool De Pluim",
    "street": "Pauwenlaan",
    "nr": "55",
    "postal": "2660",
    "city": "Hoboken",
    "type": "GO!",
    "fullAddress": "Pauwenlaan 55, 2660 Hoboken",
    "indicator": 13,
    "notIndicator": 3,
    "distancePercent": 50,
    "lat": 51.16942820000001,
    "lng": 4.3594694
  },
  {
    "name": "Het Kompas",
    "street": "Montessoristraat",
    "nr": "15",
    "postal": "2660",
    "city": "Hoboken",
    "type": "Stedelijk onderwijs",
    "fullAddress": "Montessoristraat 15, 2660 Hoboken",
    "indicator": 26,
    "notIndicator": 14,
    "distancePercent": 50,
    "lat": 51.1839964,
    "lng": 4.3641663
  },
  {
    "name": "Lucerna",
    "street": "Hendriklei",
    "nr": "209",
    "postal": "2660",
    "city": "Hoboken",
    "type": "Vrij onderwijs",
    "fullAddress": "Hendriklei 209, 2660 Hoboken",
    "indicator": 0,
    "notIndicator": 0,
    "distancePercent": 60,
    "lat": 51.18966959999999,
    "lng": 4.370251500000001
  },
  {
    "name": "Polderstad - Nello Lambrechtsstraat",
    "street": "Lambrechtsstraat",
    "nr": "19",
    "postal": "2660",
    "city": "Hoboken",
    "type": "Stedelijk onderwijs",
    "fullAddress": "Lambrechtsstraat 19, 2660 Hoboken",
    "indicator": 4,
    "notIndicator": 6,
    "distancePercent": 75,
    "lat": 51.1756724,
    "lng": 4.347835799999999
  },
  {
    "name": "Polderstad - Veerdamlaan",
    "street": "Veerdamlaan",
    "nr": "15",
    "postal": "2660",
    "city": "Hoboken",
    "type": "Stedelijk onderwijs",
    "fullAddress": "Veerdamlaan 15, 2660 Hoboken",
    "indicator": 4,
    "notIndicator": 9,
    "distancePercent": 75,
    "lat": 51.1844367,
    "lng": 4.341069699999999
  },
  {
    "name": "Sint-Agnes - De Regenboog",
    "street": "Kioskplaats",
    "nr": "28",
    "postal": "2660",
    "city": "Hoboken",
    "type": "Vrij katholiek onderwijs",
    "fullAddress": "Kioskplaats 28, 2660 Hoboken",
    "indicator": 27,
    "notIndicator": 16,
    "distancePercent": 70,
    "lat": 51.1755846,
    "lng": 4.350343
  },
  {
    "name": "Sint-Agnes - Hof ter zande",
    "street": "Oudestraat",
    "nr": "119",
    "postal": "2660",
    "city": "Hoboken",
    "type": "Vrij katholiek onderwijs",
    "fullAddress": "Oudestraat 119, 2660 Hoboken",
    "indicator": 24,
    "notIndicator": 14,
    "distancePercent": 70,
    "lat": 51.17380559999999,
    "lng": 4.3541249
  }
]
